{
"nAS":{"name":"Asia","latitude":34,"longitude":100.6},
"nEU":{"name":"Europe","latitude":54.5,"longitude":15.2},
"nNA":{"name":"North America","latitude":54.5,"longitude":-105.2},
"nSA":{"name":"South America","latitude":-8.8,"longitude":-55.5},
"nAF":{"name":"Africa","latitude":3.7,"longitude":20.5},
"nOC":{"name":"Oceania","latitude":-22.8,"longitude":140},
"nAN":{"name":"Antartica","latitude":-90,"longitude":0},
"oAF":{"name":"Afghanistan","continent":"AS","latitude":33,"longitude":65},
"oAX":{"name":"Aland Islands","continent":"EU","latitude":60.25,"longitude":20},
"oAL":{"name":"Albania","continent":"EU","latitude":41,"longitude":20},
"oDZ":{"name":"Algeria","continent":"AF","latitude":28,"longitude":3},
"oAS":{"name":"American Samoa","continent":"OC","latitude":-14.3333333333,"longitude":-170},
"oAD":{"name":"Andorra","continent":"EU","latitude":42.5,"longitude":1.5},
"oAO":{"name":"Angola","continent":"AF","latitude":-12.5,"longitude":18.5},
"oAI":{"name":"Anguilla","continent":"NA","latitude":18.25,"longitude":-63.1666666667},
"oAQ":{"name":"Antarctica","continent":"AN","latitude":-90,"longitude":0},
"oAG":{"name":"Antigua and Barbuda","continent":"NA","latitude":17.05,"longitude":-61.8},
"oAN":{"name":"Netherlands Antilles","continent":"NA","latitude":15.043612,"longitude":-66.085},
"oAR":{"name":"Argentina","continent":"SA","latitude":-34,"longitude":-64},
"oAM":{"name":"Armenia","continent":"AS","latitude":40,"longitude":45},
"oAW":{"name":"Aruba","continent":"NA","latitude":12.5,"longitude":-69.9666666667},
"oAU":{"name":"Australia","continent":"OC","latitude":-27,"longitude":133},
"oAT":{"name":"Austria","continent":"EU","latitude":47.3333333333,"longitude":13.3333333333},
"oAZ":{"name":"Azerbaijan","continent":"AS","latitude":40.5,"longitude":47.5},
"oBS":{"name":"Bahamas","continent":"NA","latitude":24.25,"longitude":-76},
"oBH":{"name":"Bahrain","continent":"AS","latitude":26,"longitude":50.55},
"oBD":{"name":"Bangladesh","continent":"AS","latitude":24,"longitude":90},
"oBB":{"name":"Barbados","continent":"NA","latitude":13.1666666667,"longitude":-59.5333333333},
"oBY":{"name":"Belarus","continent":"EU","latitude":53,"longitude":28},
"oBE":{"name":"Belgium","continent":"EU","latitude":50.8333333333,"longitude":4},
"oBZ":{"name":"Belize","continent":"NA","latitude":17.25,"longitude":-88.75},
"oBJ":{"name":"Benin","continent":"AF","latitude":9.5,"longitude":2.25},
"oBM":{"name":"Bermuda","continent":"NA","latitude":32.3333333333,"longitude":-64.75},
"oBT":{"name":"Bhutan","continent":"AS","latitude":27.5,"longitude":90.5},
"oBO":{"name":"Plurinational State of Bolivia","continent":"SA","latitude":-17,"longitude":-65},
"oBQ":{"name":"Bonaire, Sint Eustatius and Saba","continent":"NA","latitude":12.1666666667,"longitude":-68.25},
"oBA":{"name":"Bosnia and Herzegovina","continent":"EU","latitude":44,"longitude":18},
"oBW":{"name":"Botswana","continent":"AF","latitude":-22,"longitude":24},
"oBV":{"name":"Bouvet Island","continent":"AN","latitude":-54.4333333333,"longitude":3.4},
"oBR":{"name":"Brazil","continent":"SA","latitude":-10,"longitude":-55},
"oIO":{"name":"British Indian Ocean Territory","continent":"AS","latitude":-6,"longitude":71.5},
"oBN":{"name":"Brunei Darussalam","continent":"AS","latitude":4.5,"longitude":114.666666667},
"oBG":{"name":"Bulgaria","continent":"EU","latitude":43,"longitude":25},
"oBF":{"name":"Burkina Faso","continent":"AF","latitude":13,"longitude":-2},
"oBI":{"name":"Burundi","continent":"AF","latitude":-3.5,"longitude":30},
"oKH":{"name":"Cambodia","continent":"AS","latitude":13,"longitude":105},
"oCM":{"name":"Cameroon","continent":"AF","latitude":6,"longitude":12},
"oCA":{"name":"Canada","continent":"NA","latitude":60,"longitude":-95},
"oCV":{"name":"Cape Verde","continent":"AF","latitude":16,"longitude":-24},
"oKY":{"name":"Cayman Islands","continent":"NA","latitude":19.5,"longitude":-80.5},
"oCF":{"name":"Central African Republic","continent":"AF","latitude":7,"longitude":21},
"oTD":{"name":"Chad","continent":"AF","latitude":15,"longitude":19},
"oCL":{"name":"Chile","continent":"SA","latitude":-30,"longitude":-71},
"oCN":{"name":"China","continent":"AS","latitude":35,"longitude":105},
"oCX":{"name":"Christmas Island","continent":"AS","latitude":-10.5,"longitude":105.666666667},
"oCC":{"name":"Cocos (Keeling) Islands","continent":"AS","latitude":-12.5,"longitude":96.8333333333},
"oCO":{"name":"Colombia","continent":"SA","latitude":4,"longitude":-72},
"oKM":{"name":"Comoros","continent":"AF","latitude":-12.1666666667,"longitude":44.25},
"oCG":{"name":"Congo","continent":"AF","latitude":-1,"longitude":15},
"oCD":{"name":"The Democratic Republic of the Congo","continent":"AF","latitude":0.0166666666667,"longitude":25},
"oCK":{"name":"Cook Islands","continent":"OC","latitude":-21.2333333333,"longitude":-159.766666667},
"oCR":{"name":"Costa Rica","continent":"NA","latitude":10,"longitude":-84},
"oCI":{"name":"Cote d'Ivoire","continent":"AF","latitude":8,"longitude":-5},
"oHR":{"name":"Croatia","continent":"EU","latitude":45.1666666667,"longitude":15.5},
"oCU":{"name":"Cuba","continent":"NA","latitude":21.5,"longitude":-80},
"oCW":{"name":"Curacao","continent":"NA","latitude":12.1666666667,"longitude":-69},
"oCY":{"name":"Cyprus","continent":"AS","latitude":35,"longitude":33},
"oCZ":{"name":"Czech Republic","continent":"EU","latitude":49.75,"longitude":15.5},
"oDK":{"name":"Denmark","continent":"EU","latitude":56,"longitude":10},
"oDJ":{"name":"Djibouti","continent":"AF","latitude":11.5,"longitude":43},
"oDM":{"name":"Dominica","continent":"NA","latitude":15.4166666667,"longitude":-61.3333333333},
"oDO":{"name":"Dominican Republic","continent":"NA","latitude":19,"longitude":-70.6666666667},
"oEC":{"name":"Ecuador","continent":"SA","latitude":-2,"longitude":-77.5},
"oEG":{"name":"Egypt","continent":"AF","latitude":27,"longitude":30},
"oSV":{"name":"El Salvador","continent":"NA","latitude":13.8333333333,"longitude":-88.9166666667},
"oGQ":{"name":"Equatorial Guinea","continent":"AF","latitude":2,"longitude":10},
"oER":{"name":"Eritrea","continent":"AF","latitude":15,"longitude":39},
"oEE":{"name":"Estonia","continent":"EU","latitude":59,"longitude":26},
"oET":{"name":"Ethiopia","continent":"AF","latitude":8,"longitude":38},
"oFK":{"name":"Falkland Islands (Malvinas)","continent":"SA","latitude":-51.75,"longitude":-59},
"oFO":{"name":"Faroe Islands","continent":"EU","latitude":62,"longitude":-7},
"oFJ":{"name":"Fiji","continent":"OC","latitude":-18,"longitude":175},
"oFI":{"name":"Finland","continent":"EU","latitude":64,"longitude":26},
"oFR":{"name":"France","continent":"EU","latitude":46,"longitude":2},
"oGF":{"name":"French Guiana","continent":"SA","latitude":4,"longitude":-53},
"oPF":{"name":"French Polynesia","continent":"OC","latitude":-15,"longitude":-140},
"oTF":{"name":"French Southern Territories","continent":"AN","latitude":-37.8333333333,"longitude":77.5333333333},
"oGA":{"name":"Gabon","continent":"AF","latitude":-1,"longitude":11.75},
"oGM":{"name":"Gambia","continent":"AF","latitude":13.4666666667,"longitude":-16.5666666667},
"oGE":{"name":"Georgia","continent":"AS","latitude":42,"longitude":43.5},
"oDE":{"name":"Germany","continent":"EU","latitude":51,"longitude":9},
"oGH":{"name":"Ghana","continent":"AF","latitude":8,"longitude":-2},
"oGI":{"name":"Gibraltar","continent":"EU","latitude":36.1333333333,"longitude":-5.35},
"oGR":{"name":"Greece","continent":"EU","latitude":39,"longitude":22},
"oGL":{"name":"Greenland","continent":"NA","latitude":72,"longitude":-40},
"oGD":{"name":"Grenada","continent":"NA","latitude":12.1166666667,"longitude":-61.6666666667},
"oGP":{"name":"Guadeloupe","continent":"NA","latitude":16.25,"longitude":-61.5833333333},
"oGU":{"name":"Guam","continent":"OC","latitude":13.4666666667,"longitude":144.783333333},
"oGT":{"name":"Guatemala","continent":"NA","latitude":15.5,"longitude":-90.25},
"oGG":{"name":"Guernsey","continent":"EU","latitude":49.4666666667,"longitude":-2.58333333333},
"oGN":{"name":"Guinea","continent":"AF","latitude":11,"longitude":-10},
"oGW":{"name":"Guinea-Bissau","continent":"AF","latitude":12,"longitude":-15},
"oGY":{"name":"Guyana","continent":"SA","latitude":5,"longitude":-59},
"oHT":{"name":"Haiti","continent":"NA","latitude":19,"longitude":-72.4166666667},
"oHM":{"name":"Heard Island and McDonald Islands","continent":"OC","latitude":-53.1,"longitude":72.5166666667},
"oVA":{"name":"Holy See (Vatican City State)","continent":"EU","latitude":41.9,"longitude":12.45},
"oHN":{"name":"Honduras","continent":"NA","latitude":15,"longitude":-86.5},
"oHK":{"name":"Hong Kong","continent":"AS","latitude":22.25,"longitude":114.166666667},
"oHU":{"name":"Hungary","continent":"EU","latitude":47,"longitude":20},
"oIS":{"name":"Iceland","continent":"EU","latitude":65,"longitude":-18},
"oIN":{"name":"India","continent":"AS","latitude":20,"longitude":77},
"oID":{"name":"Indonesia","continent":"AS","latitude":-5,"longitude":120},
"oIR":{"name":"Islamic Republic of Iran","continent":"AS","latitude":32,"longitude":53},
"oIQ":{"name":"Iraq","continent":"AS","latitude":33,"longitude":44},
"oIE":{"name":"Ireland","continent":"EU","latitude":53,"longitude":-8},
"oIM":{"name":"Isle of Man","continent":"EU","latitude":54.25,"longitude":-4.5},
"oIL":{"name":"Israel","continent":"AS","latitude":31.5,"longitude":34.75},
"oIT":{"name":"Italy","continent":"EU","latitude":42.8333333333,"longitude":12.8333333333},
"oJM":{"name":"Jamaica","continent":"NA","latitude":18.25,"longitude":-77.5},
"oJP":{"name":"Japan","continent":"AS","latitude":36,"longitude":138},
"oJE":{"name":"Jersey","continent":"EU","latitude":49.25,"longitude":-2.16666666667},
"oJO":{"name":"Jordan","continent":"AS","latitude":31,"longitude":36},
"oKZ":{"name":"Kazakhstan","continent":"AS","latitude":48,"longitude":68},
"oKE":{"name":"Kenya","continent":"AF","latitude":1,"longitude":38},
"oKI":{"name":"Kiribati","continent":"OC","latitude":1.41666666667,"longitude":173},
"oKP":{"name":"Democratic People's Republic of Korea","continent":"AS","latitude":40,"longitude":127},
"oKR":{"name":"Republic of Korea","continent":"AS","latitude":37,"longitude":127.5},
"oXK":{"name":"Kosovo","continent":"EU","latitude":42.5833333333333,"longitude":21},
"oKW":{"name":"Kuwait","continent":"AS","latitude":29.366667,"longitude":47.966667},
"oKG":{"name":"Kyrgyzstan","continent":"AS","latitude":41,"longitude":75},
"oLA":{"name":"Lao People's Democratic Republic","continent":"AS","latitude":18,"longitude":105},
"oLV":{"name":"Latvia","continent":"EU","latitude":57,"longitude":25},
"oLB":{"name":"Lebanon","continent":"AS","latitude":33.8333333333,"longitude":35.8333333333},
"oLS":{"name":"Lesotho","continent":"AF","latitude":-29.5,"longitude":28.5},
"oLR":{"name":"Liberia","continent":"AF","latitude":6.5,"longitude":-9.5},
"oLY":{"name":"Libyan Arab Jamahiriya","continent":"AF","latitude":25,"longitude":17},
"oLI":{"name":"Liechtenstein","continent":"EU","latitude":47.2666666667,"longitude":9.53333333333},
"oLT":{"name":"Lithuania","continent":"EU","latitude":56,"longitude":24},
"oLU":{"name":"Luxembourg","continent":"EU","latitude":49.75,"longitude":6.16666666667},
"oMO":{"name":"Macao","continent":"AS","latitude":22.1666666667,"longitude":113.55},
"oMK":{"name":"The Former Yugoslav Republic of Macedonia","continent":"EU","latitude":41.8333333333,"longitude":22},
"oMG":{"name":"Madagascar","continent":"AF","latitude":-20,"longitude":47},
"oMW":{"name":"Malawi","continent":"AF","latitude":-13.5,"longitude":34},
"oMY":{"name":"Malaysia","continent":"AS","latitude":2.5,"longitude":112.5},
"oMV":{"name":"Maldives","continent":"AS","latitude":3.25,"longitude":73},
"oML":{"name":"Mali","continent":"AF","latitude":17,"longitude":-4},
"oMT":{"name":"Malta","continent":"EU","latitude":35.8333333333,"longitude":14.5833333333},
"oMH":{"name":"Marshall Islands","continent":"OC","latitude":9,"longitude":168},
"oMQ":{"name":"Martinique","continent":"NA","latitude":14.6,"longitude":-61.0833333333},
"oMR":{"name":"Mauritania","continent":"AF","latitude":20,"longitude":-12},
"oMU":{"name":"Mauritius","continent":"AF","latitude":-20.2833333333,"longitude":57.55},
"oYT":{"name":"Mayotte","continent":"AF","latitude":-12.8333333333,"longitude":45.1666666667},
"oMX":{"name":"Mexico","continent":"NA","latitude":23,"longitude":-102},
"oFM":{"name":"Federated States of Micronesia","continent":"OC","latitude":6.91666666667,"longitude":158.25},
"oMD":{"name":"Republic of Moldova","continent":"EU","latitude":47,"longitude":29},
"oMC":{"name":"Monaco","continent":"EU","latitude":43.732778,"longitude":7.419722},
"oMN":{"name":"Mongolia","continent":"AS","latitude":46,"longitude":105},
"oME":{"name":"Montenegro","continent":"EU","latitude":42.5,"longitude":19.3},
"oMS":{"name":"Montserrat","continent":"NA","latitude":16.75,"longitude":-62.2},
"oMA":{"name":"Morocco","continent":"AF","latitude":32,"longitude":-5},
"oMZ":{"name":"Mozambique","continent":"AF","latitude":-18.25,"longitude":35},
"oMM":{"name":"Myanmar","continent":"AS","latitude":22,"longitude":98},
"oNA":{"name":"Namibia","continent":"AF","latitude":-22,"longitude":17},
"oNR":{"name":"Nauru","continent":"OC","latitude":-0.533333333333,"longitude":166.916666667},
"oNP":{"name":"Nepal","continent":"AS","latitude":28,"longitude":84},
"oNL":{"name":"Netherlands","continent":"EU","latitude":52.5,"longitude":5.75},
"oNC":{"name":"New Caledonia","continent":"OC","latitude":-21.5,"longitude":165.5},
"oNZ":{"name":"New Zealand","continent":"OC","latitude":-41,"longitude":174},
"oNI":{"name":"Nicaragua","continent":"NA","latitude":13,"longitude":-85},
"oNE":{"name":"Niger","continent":"AF","latitude":16,"longitude":8},
"oNG":{"name":"Nigeria","continent":"AF","latitude":10,"longitude":8},
"oNU":{"name":"Niue","continent":"OC","latitude":-19.0333333333,"longitude":-169.866666667},
"oNF":{"name":"Norfolk Island","continent":"OC","latitude":-29.0333333333,"longitude":167.95},
"oMP":{"name":"Northern Mariana Islands","continent":"OC","latitude":15.2,"longitude":145.75},
"oNO":{"name":"Norway","continent":"EU","latitude":62,"longitude":10},
"oPS":{"name":"Occupied Palestinian Territory","continent":"AS","latitude":32,"longitude":35.25},
"oOM":{"name":"Oman","continent":"AS","latitude":21,"longitude":57},
"oPK":{"name":"Pakistan","continent":"AS","latitude":30,"longitude":70},
"oPW":{"name":"Palau","continent":"OC","latitude":7.5,"longitude":134.5},
"oPA":{"name":"Panama","continent":"NA","latitude":9,"longitude":-80},
"oPG":{"name":"Papua New Guinea","continent":"OC","latitude":-6,"longitude":147},
"oPY":{"name":"Paraguay","continent":"SA","latitude":-23,"longitude":-58},
"oPE":{"name":"Peru","continent":"SA","latitude":-10,"longitude":-76},
"oPH":{"name":"Philippines","continent":"AS","latitude":13,"longitude":122},
"oPN":{"name":"Pitcairn","continent":"OC","latitude":-25.0666666667,"longitude":-130.1},
"oPL":{"name":"Poland","continent":"EU","latitude":52,"longitude":20},
"oPT":{"name":"Portugal","continent":"EU","latitude":39.5,"longitude":-8},
"oPR":{"name":"Puerto Rico","continent":"NA","latitude":18.25,"longitude":-66.5},
"oQA":{"name":"Qatar","continent":"AS","latitude":25.5,"longitude":51.25},
"oRE":{"name":"Reunion","continent":"AF","latitude":-21.1,"longitude":55.6},
"oRO":{"name":"Romania","continent":"EU","latitude":46,"longitude":25},
"oRU":{"name":"Russian Federation","continent":"EU","latitude":60,"longitude":100},
"oRW":{"name":"Rwanda","continent":"AF","latitude":-2,"longitude":30},
"oBL":{"name":"Saint Barthelemy","continent":"NA","latitude":17.9,"longitude":-62.833333},
"oSH":{"name":"Saint Helena, Ascension and Tristan da Cunha","continent":"AF","latitude":-15.95,"longitude":-5.7},
"oKN":{"name":"Saint Kitts and Nevis","continent":"NA","latitude":17.3333333333,"longitude":-62.75},
"oLC":{"name":"Saint Lucia","continent":"NA","latitude":13.8833333333,"longitude":-60.9666666667},
"oMF":{"name":"Saint Martin (French part)","continent":"NA","latitude":18.075278,"longitude":-63.06},
"oPM":{"name":"Saint Pierre and Miquelon","continent":"NA","latitude":46.8333333333,"longitude":-56.3333333333},
"oVC":{"name":"Saint Vincent and The Grenadines","continent":"NA","latitude":13.25,"longitude":-61.2},
"oWS":{"name":"Samoa","continent":"OC","latitude":-13.5833333333,"longitude":-172.333333333},
"oSM":{"name":"San Marino","continent":"EU","latitude":43.933333,"longitude":12.4166666667},
"oST":{"name":"Sao Tome and Principe","continent":"AF","latitude":1,"longitude":7},
"oSA":{"name":"Saudi Arabia","continent":"AS","latitude":25,"longitude":45},
"oSN":{"name":"Senegal","continent":"AF","latitude":14,"longitude":-14},
"oRS":{"name":"Serbia","continent":"EU","latitude":44,"longitude":21},
"oSC":{"name":"Seychelles","continent":"AF","latitude":-4.58333333333,"longitude":55.6666666667},
"oSL":{"name":"Sierra Leone","continent":"AF","latitude":8.5,"longitude":-11.5},
"oSG":{"name":"Singapore","continent":"AS","latitude":1.36666666667,"longitude":103.8},
"oSX":{"name":"Sint Maarten (Dutch part)","continent":"NA","latitude":18.04167,"longitude":-63.06667},
"oSK":{"name":"Slovakia","continent":"EU","latitude":48.6666666667,"longitude":19.5},
"oSI":{"name":"Slovenia","continent":"EU","latitude":46.1166666667,"longitude":14.8166666667},
"oSB":{"name":"Solomon Islands","continent":"OC","latitude":-8,"longitude":159},
"oSO":{"name":"Somalia","continent":"AF","latitude":10,"longitude":49},
"oZA":{"name":"South Africa","continent":"AF","latitude":-29,"longitude":24},
"oGS":{"name":"South Georgia and the South Sandwich Islands","continent":"AN","latitude":-54.5,"longitude":-37},
"oSS":{"name":"South Sudan","continent":"AF","latitude":8,"longitude":30},
"oES":{"name":"Spain","continent":"EU","latitude":40,"longitude":-4},
"oLK":{"name":"Sri Lanka","continent":"AS","latitude":7,"longitude":81},
"oSD":{"name":"Sudan","continent":"AF","latitude":15,"longitude":30},
"oSR":{"name":"Suriname","continent":"SA","latitude":4,"longitude":-56},
"oSJ":{"name":"Svalbard and Jan Mayen","continent":"EU","latitude":78,"longitude":20},
"oSZ":{"name":"Swaziland","continent":"AF","latitude":-26.5,"longitude":31.5},
"oSE":{"name":"Sweden","continent":"EU","latitude":62,"longitude":15},
"oCH":{"name":"Switzerland","continent":"EU","latitude":47,"longitude":8},
"oSY":{"name":"Syrian Arab Republic","continent":"AS","latitude":35,"longitude":38},
"oTW":{"name":"Taiwan, Province of China","continent":"AS","latitude":23.5,"longitude":121},
"oTJ":{"name":"Tajikistan","continent":"AS","latitude":39,"longitude":71},
"oTZ":{"name":"United Republic of Tanzania","continent":"AF","latitude":-6,"longitude":35},
"oTH":{"name":"Thailand","continent":"AS","latitude":15,"longitude":100},
"oTL":{"name":"Timor-Leste","continent":"AS","latitude":-8.83333333333,"longitude":125.916666667},
"oTG":{"name":"Togo","continent":"AF","latitude":8,"longitude":1.16666666667},
"oTK":{"name":"Tokelau","continent":"OC","latitude":-9,"longitude":-172},
"oTO":{"name":"Tonga","continent":"OC","latitude":-20,"longitude":-175},
"oTT":{"name":"Trinidad and Tobago","continent":"NA","latitude":11,"longitude":-61},
"oTN":{"name":"Tunisia","continent":"AF","latitude":34,"longitude":9},
"oTR":{"name":"Turkey","continent":"AS","latitude":39,"longitude":35},
"oTM":{"name":"Turkmenistan","continent":"AS","latitude":40,"longitude":60},
"oTC":{"name":"Turks and Caicos Islands","continent":"NA","latitude":21.75,"longitude":-71.5833333333},
"oTV":{"name":"Tuvalu","continent":"OC","latitude":-8,"longitude":178},
"oUG":{"name":"Uganda","continent":"AF","latitude":1,"longitude":32},
"oUA":{"name":"Ukraine","continent":"EU","latitude":49,"longitude":32},
"oAE":{"name":"United Arab Emirates","continent":"AS","latitude":24,"longitude":54},
"oGB":{"name":"United Kingdom","continent":"EU","latitude":54,"longitude":-2},
"oUS":{"name":"United States","continent":"NA","latitude":38,"longitude":-97},
"oUM":{"name":"United States Minor Outlying Islands","continent":"OC","latitude":16.75,"longitude":-169.516666667},
"oUY":{"name":"Uruguay","continent":"SA","latitude":-33,"longitude":-56},
"oUZ":{"name":"Uzbekistan","continent":"AS","latitude":41,"longitude":64},
"oVU":{"name":"Vanuatu","continent":"OC","latitude":-16,"longitude":167},
"oVE":{"name":"Bolivarian Republic of Venezuela","continent":"SA","latitude":8,"longitude":-66},
"oVN":{"name":"Viet Nam","continent":"AS","latitude":16.1666666667,"longitude":107.833333333},
"oVG":{"name":"British Virgin Islands","continent":"NA","latitude":18.5,"longitude":-64.5},
"oVI":{"name":"U.S. Virgin Islands","continent":"NA","latitude":18.3333333333,"longitude":-64.8333333333},
"oWF":{"name":"Wallis and Futuna","continent":"OC","latitude":-13.3,"longitude":-176.2},
"oEH":{"name":"Western Sahara","continent":"AF","latitude":24.5,"longitude":-13},
"oYE":{"name":"Yemen","continent":"AS","latitude":15,"longitude":48},
"oZM":{"name":"Zambia","continent":"AF","latitude":-15,"longitude":30},
"oZW":{"name":"Zimbabwe","continent":"AF","latitude":-20,"longitude":30}
}
